{
  "type": "FeatureCollection",
  "features": [
    {"type": "Feature", "properties": {"NAME": "Trujillo Alto"}, "geometry": {"type": "Point", "coordinates": [-66.0107, 18.3553]}},
    {"type": "Feature", "properties": {"NAME": "San Juan"}, "geometry": {"type": "Point", "coordinates": [-66.0636, 18.4655]}},
    {"type": "Feature", "properties": {"NAME": "Carolina"}, "geometry": {"type": "Point", "coordinates": [-65.9685, 18.3874]}},
    {"type": "Feature", "properties": {"NAME": "Gurabo"}, "geometry": {"type": "Point", "coordinates": [-65.9813, 18.2553]}},
    {"type": "Feature", "properties": {"NAME": "Caguas"}, "geometry": {"type": "Point", "coordinates": [-66.0508, 18.2311]}},
    {"type": "Feature", "properties": {"NAME": "Comerío"}, "geometry": {"type": "Point", "coordinates": [-66.2268, 18.2183]}},
    {"type": "Feature", "properties": {"NAME": "Toa Alta"}, "geometry": {"type": "Point", "coordinates": [-66.2496, 18.3880]}},
    {"type": "Feature", "properties": {"NAME": "Bayamón"}, "geometry": {"type": "Point", "coordinates": [-66.1517, 18.3985]}},
    {"type": "Feature", "properties": {"NAME": "Guaynabo"}, "geometry": {"type": "Point", "coordinates": [-66.1156, 18.3985]}},
    {"type": "Feature", "properties": {"NAME": "Cidra"}, "geometry": {"type": "Point", "coordinates": [-66.1621, 18.1733]}},
    {"type": "Feature", "properties": {"NAME": "Aibonito"}, "geometry": {"type": "Point", "coordinates": [-66.2678, 18.1444]}},
    {"type": "Feature", "properties": {"NAME": "Barranquitas"}, "geometry": {"type": "Point", "coordinates": [-66.3064, 18.1849]}},
    {"type": "Feature", "properties": {"NAME": "Patillas"}, "geometry": {"type": "Point", "coordinates": [-65.9938, 18.0061]}},
    {"type": "Feature", "properties": {"NAME": "Arroyo"}, "geometry": {"type": "Point", "coordinates": [-66.0663, 17.9654]}},
    {"type": "Feature", "properties": {"NAME": "Guayama"}, "geometry": {"type": "Point", "coordinates": [-66.1143, 17.9841]}},
    {"type": "Feature", "properties": {"NAME": "Villalba"}, "geometry": {"type": "Point", "coordinates": [-66.4963, 18.1267]}},
    {"type": "Feature", "properties": {"NAME": "Orocovis"}, "geometry": {"type": "Point", "coordinates": [-66.3871, 18.2276]}},
    {"type": "Feature", "properties": {"NAME": "Barros"}, "geometry": {"type": "Point", "coordinates": [-66.4449, 18.1793]}},
    {"type": "Feature", "properties": {"NAME": "Salinas"}, "geometry": {"type": "Point", "coordinates": [-66.2463, 17.9767]}},
    {"type": "Feature", "properties": {"NAME": "Naguabo"}, "geometry": {"type": "Point", "coordinates": [-65.8163, 18.2115]}},
    {"type": "Feature", "properties": {"NAME": "Humacao"}, "geometry": {"type": "Point", "coordinates": [-65.8208, 18.1399]}},
    {"type": "Feature", "properties": {"NAME": "Yabucoa"}, "geometry": {"type": "Point", "coordinates": [-65.8786, 18.0530]}},
    {"type": "Feature", "properties": {"NAME": "Las Piedras"}, "geometry": {"type": "Point", "coordinates": [-65.8733, 18.1792]}},
    {"type": "Feature", "properties": {"NAME": "Vieques"}, "geometry": {"type": "Point", "coordinates": [-65.4410, 18.1486]}},
    {"type": "Feature", "properties": {"NAME": "Culebra"}, "geometry": {"type": "Point", "coordinates": [-65.3021, 18.3030]}},
    {"type": "Feature", "properties": {"NAME": "Utuado"}, "geometry": {"type": "Point", "coordinates": [-66.5026, 18.2655]}},
    {"type": "Feature", "properties": {"NAME": "Adjuntas"}, "geometry": {"type": "Point", "coordinates": [-66.7201, 18.1613]}},
    {"type": "Feature", "properties": {"NAME": "Lares"}, "geometry": {"type": "Point", "coordinates": [-66.4741, 18.2969]}},
    {"type": "Feature", "properties": {"NAME": "Fajardo"}, "geometry": {"type": "Point", "coordinates": [-65.6524, 18.3380]}},
    {"type": "Feature", "properties": {"NAME": "Luquillo"}, "geometry": {"type": "Point", "coordinates": [-65.7202, 18.3724]}},
    {"type": "Feature", "properties": {"NAME": "Ceiba"}, "geometry": {"type": "Point", "coordinates": [-65.6414, 18.2636]}},
    {"type": "Feature", "properties": {"NAME": "Isabela"}, "geometry": {"type": "Point", "coordinates": [-67.0416, 18.5424]}},
    {"type": "Feature", "properties": {"NAME": "Quebradillas"}, "geometry": {"type": "Point", "coordinates": [-66.9384, 18.4738]}},
    {"type": "Feature", "properties": {"NAME": "San Sebastián"}, "geometry": {"type": "Point", "coordinates": [-66.9924, 18.3363]}},
    {"type": "Feature", "properties": {"NAME": "Aguadilla"}, "geometry": {"type": "Point", "coordinates": [-67.1454, 18.4285]}},
    {"type": "Feature", "properties": {"NAME": "Moca"}, "geometry": {"type": "Point", "coordinates": [-67.0782, 18.3946]}},
    {"type": "Feature", "properties": {"NAME": "Rincón"}, "geometry": {"type": "Point", "coordinates": [-67.2502, 18.3404]}},
    {"type": "Feature", "properties": {"NAME": "Aguada"}, "geometry": {"type": "Point", "coordinates": [-67.1832, 18.3801]}},
    {"type": "Feature", "properties": {"NAME": "Lajas"}, "geometry": {"type": "Point", "coordinates": [-67.0565, 18.0487]}},
    {"type": "Feature", "properties": {"NAME": "Sabana Grande"}, "geometry": {"type": "Point", "coordinates": [-66.9598, 18.0791]}},
    {"type": "Feature", "properties": {"NAME": "Mayagüez"}, "geometry": {"type": "Point", "coordinates": [-67.1513, 18.2013]}},
    {"type": "Feature", "properties": {"NAME": "Ponce"}, "geometry": {"type": "Point", "coordinates": [-66.6366, 18.0111]}},
    {"type": "Feature", "properties": {"NAME": "Juana Díaz"}, "geometry": {"type": "Point", "coordinates": [-66.5058, 18.0537]}}
  ]
}
